[
    {
        "id": 2248,
        "name": "Harmons Station @ 123E 100S",
        "addressStreet": "123 E 100 S",
        "addressCity": "Salt Lake City",
        "addressState": "UT",
        "addressZipCode": "84111",
        "latitude": 40.76704,
        "longitude": -111.88774,
        "totalDocks": 23,
        "timeZoneId": "Mountain Standard Time",
        "regionId": null,
        "ianaTimeZone": "America/Denver"
    },
    {
        "id": 2251,
        "name": "Key Bank Station @ 6S Main Street",
        "addressStreet": "6 S. Main St.",
        "addressCity": "Salt Lake City",
        "addressState": "UT",
        "addressZipCode": "84101",
        "latitude": 40.76903,
        "longitude": -111.89126,
        "totalDocks": 28,
        "timeZoneId": "Mountain Standard Time",
        "regionId": null,
        "ianaTimeZone": "America/Denver"
    },
    {
        "id": 2252,
        "name": "Squatters Station @ 147W Broadway",
        "addressStreet": "147W Broadway",
        "addressCity": "Salt Lake City",
        "addressState": "UT",
        "addressZipCode": "84101",
        "latitude": 40.76266,
        "longitude": -111.89544,
        "totalDocks": 19,
        "timeZoneId": "Mountain Standard Time",
        "regionId": null,
        "ianaTimeZone": "America/Denver"
    },
    {
        "id": 2254,
        "name": "20S West Temple Station",
        "addressStreet": "20 S West Temple",
        "addressCity": "Salt Lake City",
        "addressState": "UT",
        "addressZipCode": "84101",
        "latitude": 40.76812,
        "longitude": -111.89419,
        "totalDocks": 17,
        "timeZoneId": "Mountain Standard Time",
        "regionId": null,
        "ianaTimeZone": "America/Denver"
    },
    {
        "id": 2255,
        "name": "City Weekly Station @ 353S Main Street",
        "addressStreet": "353S Main Street",
        "addressCity": "Salt Lake City",
        "addressState": "UT",
        "addressZipCode": "84111",
        "latitude": 40.76142,
        "longitude": -111.89091,
        "totalDocks": 27,
        "timeZoneId": "Mountain Standard Time",
        "regionId": null,
        "ianaTimeZone": "America/Denver"
    },
    {
        "id": 2256,
        "name": "400W South Temple Station",
        "addressStreet": "400 W South Temple",
        "addressCity": "Salt Lake City",
        "addressState": "UT",
        "addressZipCode": "84101",
        "latitude": 40.76975,
        "longitude": -111.90274,
        "totalDocks": 19,
        "timeZoneId": "Mountain Standard Time",
        "regionId": null,
        "ianaTimeZone": "America/Denver"
    },
    {
        "id": 2257,
        "name": "Rocky Mountain Power Station @ 225S Main Street",
        "addressStreet": "225 S. Main St.",
        "addressCity": "Salt Lake City",
        "addressState": "UT",
        "addressZipCode": "84111",
        "latitude": 40.76430,
        "longitude": -111.89095,
        "totalDocks": 41,
        "timeZoneId": "Mountain Standard Time",
        "regionId": null,
        "ianaTimeZone": "America/Denver"
    },
    {
        "id": 2258,
        "name": "The Church of Jesus Christ of Latter-Day Saints Station @ 200W North Temple",
        "addressStreet": "200 West North Temple",
        "addressCity": "Salt Lake City",
        "addressState": "UT",
        "addressZipCode": "84103",
        "latitude": 40.77181,
        "longitude": -111.89667,
        "totalDocks": 23,
        "timeZoneId": "Mountain Standard Time",
        "regionId": null,
        "ianaTimeZone": "America/Denver"
    },
    {
        "id": 2259,
        "name": "UTA Salt Lake Central Station @ 290S 600W",
        "addressStreet": "290S 600W",
        "addressCity": "Salt Lake City",
        "addressState": "UT",
        "addressZipCode": "84101",
        "latitude": 40.76257,
        "longitude": -111.90850,
        "totalDocks": 40,
        "timeZoneId": "Mountain Standard Time",
        "regionId": null,
        "ianaTimeZone": "America/Denver"
    },
    {
        "id": 2400,
        "name": "Radisson Station @ 215W South Temple",
        "addressStreet": "215 West South Temple",
        "addressCity": "Salt Lake City",
        "addressState": "UT",
        "addressZipCode": "84101",
        "latitude": 40.76906,
        "longitude": -111.89707,
        "totalDocks": 17,
        "timeZoneId": "Mountain Standard Time",
        "regionId": null,
        "ianaTimeZone": "America/Denver"
    },
    {
        "id": 2735,
        "name": "UCAIR Station @ 450S 200E",
        "addressStreet": "450 South 200 East",
        "addressCity": "Salt Lake City",
        "addressState": "UT",
        "addressZipCode": "84111",
        "latitude": 40.75943,
        "longitude": -111.88521,
        "totalDocks": 22,
        "timeZoneId": "Mountain Standard Time",
        "regionId": null,
        "ianaTimeZone": "America/Denver"
    },
    {
        "id": 2736,
        "name": "640W  North Temple Station",
        "addressStreet": "640 West North Temple",
        "addressCity": "Salt Lake City",
        "addressState": "UT",
        "addressZipCode": "84116",
        "latitude": 40.77132,
        "longitude": -111.90874,
        "totalDocks": 20,
        "timeZoneId": "Mountain Standard Time",
        "regionId": null,
        "ianaTimeZone": "America/Denver"
    },
    {
        "id": 2737,
        "name": "Energy Development Station @ 136S Main Street",
        "addressStreet": "136S Main Street ",
        "addressCity": "Salt Lake City",
        "addressState": "UT",
        "addressZipCode": "84101",
        "latitude": 40.76624,
        "longitude": -111.89124,
        "totalDocks": 19,
        "timeZoneId": "Mountain Standard Time",
        "regionId": null,
        "ianaTimeZone": "America/Denver"
    },
    {
        "id": 2738,
        "name": "Sheraton Station @ 500S 150W",
        "addressStreet": "500S 150W",
        "addressCity": "Salt Lake City",
        "addressState": "UT",
        "addressZipCode": "84101",
        "latitude": 40.75861,
        "longitude": -111.89593,
        "totalDocks": 21,
        "timeZoneId": "Mountain Standard Time",
        "regionId": null,
        "ianaTimeZone": "America/Denver"
    },
    {
        "id": 2739,
        "name": "CityScape Station @ 190S 400E",
        "addressStreet": "190 South 400 East",
        "addressCity": "Salt Lake City",
        "addressState": "UT",
        "addressZipCode": "84111",
        "latitude": 40.76539,
        "longitude": -111.87982,
        "totalDocks": 19,
        "timeZoneId": "Mountain Standard Time",
        "regionId": null,
        "ianaTimeZone": "America/Denver"
    },
    {
        "id": 2740,
        "name": "3 & 3 Uncommons Station ",
        "addressStreet": "300 South 300 East",
        "addressCity": "Salt Lake City",
        "addressState": "UT",
        "addressZipCode": "84111",
        "latitude": 40.76297,
        "longitude": -111.88286,
        "totalDocks": 19,
        "timeZoneId": "Mountain Standard Time",
        "regionId": null,
        "ianaTimeZone": "America/Denver"
    },
    {
        "id": 2742,
        "name": "Twilight Concert Series Station @ 50W Broadway ",
        "addressStreet": "50 W 300 S",
        "addressCity": "Salt Lake City",
        "addressState": "UT",
        "addressZipCode": "84101",
        "latitude": 40.76283,
        "longitude": -111.89248,
        "totalDocks": 18,
        "timeZoneId": "Mountain Standard Time",
        "regionId": null,
        "ianaTimeZone": "America/Denver"
    },
    {
        "id": 3181,
        "name": "UCAIR Station @ Pioneer Park",
        "addressStreet": "300S 300W",
        "addressCity": "Salt Lake City",
        "addressState": "UT",
        "addressZipCode": "84101",
        "latitude": 40.76285,
        "longitude": -111.90006,
        "totalDocks": 22,
        "timeZoneId": "Mountain Standard Time",
        "regionId": null,
        "ianaTimeZone": "America/Denver"
    },
    {
        "id": 3182,
        "name": "SLUG Mag Station @ 200S 200E",
        "addressStreet": "200S 200E ",
        "addressCity": "Salt Lake City",
        "addressState": "UT",
        "addressZipCode": "84111",
        "latitude": 40.76524,
        "longitude": -111.88515,
        "totalDocks": 20,
        "timeZoneId": "Mountain Standard Time",
        "regionId": null,
        "ianaTimeZone": "America/Denver"
    },
    {
        "id": 3183,
        "name": "The Gateway Station @ 100S Rio Grande ",
        "addressStreet": "100S 469W",
        "addressCity": "Salt Lake City",
        "addressState": "UT",
        "addressZipCode": "84101",
        "latitude": 40.76713,
        "longitude": -111.90424,
        "totalDocks": 26,
        "timeZoneId": "Mountain Standard Time",
        "regionId": null,
        "ianaTimeZone": "America/Denver"
    },
    {
        "id": 3184,
        "name": " 100S 500E Station",
        "addressStreet": " 100S 500E ",
        "addressCity": "Salt Lake City",
        "addressState": "UT",
        "addressZipCode": "84102",
        "latitude": 40.76746,
        "longitude": -111.87664,
        "totalDocks": 21,
        "timeZoneId": "Mountain Standard Time",
        "regionId": null,
        "ianaTimeZone": "America/Denver"
    },
    {
        "id": 3185,
        "name": "JF Capital Station @ 300S 500E",
        "addressStreet": "300S 500E",
        "addressCity": "Salt Lake City",
        "addressState": "UT",
        "addressZipCode": "84102",
        "latitude": 40.76307,
        "longitude": -111.87697,
        "totalDocks": 21,
        "timeZoneId": "Mountain Standard Time",
        "regionId": null,
        "ianaTimeZone": "America/Denver"
    },
    {
        "id": 3423,
        "name": "Dominion Energy Station @ 100S Main Street ",
        "addressStreet": "100S Main St ",
        "addressCity": "Salt Lake City",
        "addressState": "UT",
        "addressZipCode": "84111",
        "latitude": 40.76732,
        "longitude": -111.89085,
        "totalDocks": 24,
        "timeZoneId": "Mountain Standard Time",
        "regionId": null,
        "ianaTimeZone": "America/Denver"
    },
    {
        "id": 3425,
        "name": "250S 200W Station",
        "addressStreet": "250S 200W ",
        "addressCity": "Salt Lake City",
        "addressState": "UT",
        "addressZipCode": "84111",
        "latitude": 40.76377,
        "longitude": -111.89659,
        "totalDocks": 21,
        "timeZoneId": "Mountain Standard Time",
        "regionId": null,
        "ianaTimeZone": "America/Denver"
    },
    {
        "id": 3426,
        "name": "Milagro and AC Hotel Station @ 200S 250W",
        "addressStreet": "200S 250W",
        "addressCity": "Salt Lake City",
        "addressState": "UT",
        "addressZipCode": "84111",
        "latitude": 40.76485,
        "longitude": -111.89817,
        "totalDocks": 22,
        "timeZoneId": "Mountain Standard Time",
        "regionId": null,
        "ianaTimeZone": "America/Denver"
    },
    {
        "id": 3427,
        "name": "Salt Lake Mag Station @ 510S 700E (Trolley Square)",
        "addressStreet": "510S 700E",
        "addressCity": "Salt Lake City",
        "addressState": "UT",
        "addressZipCode": "84111",
        "latitude": 40.75791,
        "longitude": -111.87152,
        "totalDocks": 20,
        "timeZoneId": "Mountain Standard Time",
        "regionId": null,
        "ianaTimeZone": "America/Denver"
    },
    {
        "id": 3428,
        "name": "UTA FrontRunner Station @ 500W North Temple",
        "addressStreet": "500W N. Temple",
        "addressCity": "Salt Lake City",
        "addressState": "UT",
        "addressZipCode": "84111",
        "latitude": 40.77187,
        "longitude": -111.90500,
        "totalDocks": 22,
        "timeZoneId": "Mountain Standard Time",
        "regionId": null,
        "ianaTimeZone": "America/Denver"
    },
    {
        "id": 3430,
        "name": "UTA FrontLines Station @ 200S 669W",
        "addressStreet": "200S 669W",
        "addressCity": "Salt Lake City",
        "addressState": "UT",
        "addressZipCode": "84111",
        "latitude": 40.76464,
        "longitude": -111.91133,
        "totalDocks": 21,
        "timeZoneId": "Mountain Standard Time",
        "regionId": null,
        "ianaTimeZone": "America/Denver"
    },
    {
        "id": 3847,
        "name": "Artspace Bridge Station @ 200S 500W",
        "addressStreet": "200 South 500 West",
        "addressCity": "Salt Lake City",
        "addressState": "UT",
        "addressZipCode": "84101",
        "latitude": 40.76474,
        "longitude": -111.90558,
        "totalDocks": 21,
        "timeZoneId": "Mountain Standard Time",
        "regionId": null,
        "ianaTimeZone": "America/Denver"
    },
    {
        "id": 4524,
        "publicText": null,
        "name": "UTA Central Pointe Station @ 2100S 225W",
        "addressStreet": "2100 South 225 West",
        "addressCity": "Salt Lake City",
        "addressState": "UT",
        "addressZipCode": "84115",
        "latitude": 40.72529,
        "longitude": -111.89756,
        "totalDocks": 32,
        "timeZoneId": "Mountain Standard Time",
        "regionId": null,
        "ianaTimeZone": "America/Denver"
    },
    {
        "id": 4525,
        "publicText": null,
        "name": "Salt Lake County Station @ 2001S State Street",
        "addressStreet": "2001 South State Street",
        "addressCity": "Salt Lake City",
        "addressState": "UT",
        "addressZipCode": "84115",
        "latitude": 40.72739,
        "longitude": -111.88739,
        "totalDocks": 22,
        "timeZoneId": "Mountain Standard Time",
        "regionId": null,
        "ianaTimeZone": "America/Denver"
    },
    {
        "id": 4526,
        "publicText": null,
        "name": "9th & 9th Station",
        "addressStreet": "900 South 900 East",
        "addressCity": "Salt Lake City",
        "addressState": "UT",
        "addressZipCode": "84105",
        "latitude": 40.74988,
        "longitude": -111.86563,
        "totalDocks": 16,
        "timeZoneId": "Mountain Standard Time",
        "regionId": null,
        "ianaTimeZone": "America/Denver"
    },
    {
        "id": 4528,
        "publicText": null,
        "name": "Artspace Commons Station @ 800S 400W",
        "addressStreet": "800 South 400 West",
        "addressCity": "Salt Lake City",
        "addressState": "UT",
        "addressZipCode": "84101",
        "latitude": 40.75174,
        "longitude": -111.90271,
        "totalDocks": 39,
        "timeZoneId": "Mountain Standard Time",
        "regionId": null,
        "ianaTimeZone": "America/Denver"
    },
    {
        "id": 4529,
        "publicText": null,
        "name": "Proper Brewing Co Station @ 867S Main Street",
        "addressStreet": "867 South Main Street",
        "addressCity": "Salt Lake City",
        "addressState": "UT",
        "addressZipCode": "84111",
        "latitude": 40.75025,
        "longitude": -111.89094,
        "totalDocks": 28,
        "timeZoneId": "Mountain Standard Time",
        "regionId": null,
        "ianaTimeZone": "America/Denver"
    },
    {
        "id": 4530,
        "publicText": null,
        "name": "50S 500W Station",
        "addressStreet": "50 South 500 West",
        "addressCity": "Salt Lake City",
        "addressState": "UT",
        "addressZipCode": "84101",
        "latitude": 40.76833,
        "longitude": -111.90529,
        "totalDocks": 32,
        "timeZoneId": "Mountain Standard Time",
        "regionId": null,
        "ianaTimeZone": "America/Denver"
    },
    {
        "id": 4590,
        "publicText": null,
        "name": "The Shop @ 450S 300E Station",
        "addressStreet": "450 South 300 East",
        "addressCity": "Salt Lake City",
        "addressState": "UT",
        "addressZipCode": "84111",
        "latitude": 40.75940,
        "longitude": -111.88244,
        "totalDocks": 22,
        "timeZoneId": "Mountain Standard Time",
        "regionId": null,
        "ianaTimeZone": "America/Denver"
    },
    {
        "id": 4591,
        "publicText": null,
        "name": "EcoBox Station @ 580S 500W ",
        "addressStreet": "580 South 500 West",
        "addressCity": "Salt Lake City",
        "addressState": "UT",
        "addressZipCode": "84101",
        "latitude": 40.75689,
        "longitude": -111.90523,
        "totalDocks": 26,
        "timeZoneId": "Mountain Standard Time",
        "regionId": null,
        "ianaTimeZone": "America/Denver"
    },
    {
        "id": 4593,
        "publicText": null,
        "name": "The Church of Jesus Christ of Latter-Day Saints Station @ 111N Main Street",
        "addressStreet": "111 North Main Street",
        "addressCity": "Salt Lake City",
        "addressState": "UT",
        "addressZipCode": "84150",
        "latitude": 40.77187,
        "longitude": -111.89126,
        "totalDocks": 28,
        "timeZoneId": "Mountain Standard Time",
        "regionId": null,
        "ianaTimeZone": "America/Denver"
    },
    {
        "id": 4594,
        "publicText": null,
        "name": "900S 490E Station",
        "addressStreet": "900 South 490 East",
        "addressCity": "Salt Lake City",
        "addressState": "UT",
        "addressZipCode": "84111",
        "latitude": 40.74991,
        "longitude": -111.87725,
        "totalDocks": 28,
        "timeZoneId": "Mountain Standard Time",
        "regionId": null,
        "ianaTimeZone": "America/Denver"
    },
    {
        "id": 4595,
        "publicText": null,
        "name": "300S 710E Station",
        "addressStreet": "300 S 710 East",
        "addressCity": "Salt Lake City",
        "addressState": "UT",
        "addressZipCode": "84102",
        "latitude": 40.76296,
        "longitude": -111.87053,
        "totalDocks": 24,
        "timeZoneId": "Mountain Standard Time",
        "regionId": null,
        "ianaTimeZone": "America/Denver"
    },
    {
        "id": 4603,
        "publicText": null,
        "name": "300S 200E Station",
        "addressStreet": "300 south 200 east",
        "addressCity": "salt lake city ",
        "addressState": "UT",
        "addressZipCode": "84111",
        "latitude": 40.76265,
        "longitude": -111.88568,
        "totalDocks": 35,
        "timeZoneId": "Mountain Standard Time",
        "regionId": null,
        "ianaTimeZone": "America/Denver"
    },
    {
        "id": 4619,
        "publicText": null,
        "name": "349S 200E Station",
        "addressStreet": "349S 200E",
        "addressCity": "Salt Lake City",
        "addressState": "UT",
        "addressZipCode": "84111",
        "latitude": 40.76154,
        "longitude": -111.88511,
        "totalDocks": 13,
        "timeZoneId": "Mountain Standard Time",
        "regionId": null,
        "ianaTimeZone": "America/Denver"
    },
    {
        "id": 7277,
        "publicText": null,
        "name": "26th St and Washington Blvd",
        "addressStreet": "26th St and Washington Blvd",
        "addressCity": "Ogden",
        "addressState": "UT",
        "addressZipCode": "84401",
        "latitude": 41.21869,
        "longitude": -111.97083,
        "totalDocks": 12,
        "timeZoneId": "Mountain Standard Time",
        "regionId": 37,
        "ianaTimeZone": "America/Denver"
    },
    {
        "id": 7278,
        "publicText": null,
        "name": "23rd St and Washington Blvd",
        "addressStreet": "23rd St and Washington Blvd",
        "addressCity": "Ogden",
        "addressState": "UT",
        "addressZipCode": "84401",
        "latitude": 41.22477,
        "longitude": -111.97073,
        "totalDocks": 13,
        "timeZoneId": "Mountain Standard Time",
        "regionId": 37,
        "ianaTimeZone": "America/Denver"
    },
    {
        "id": 7279,
        "publicText": null,
        "name": "25th St and Lincoln Ave",
        "addressStreet": "25th St and Lincoln Ave",
        "addressCity": "Ogden",
        "addressState": "UT",
        "addressZipCode": "84401",
        "latitude": 41.22044,
        "longitude": -111.97630,
        "totalDocks": 17,
        "timeZoneId": "Dateline Standard Time",
        "regionId": 37,
        "ianaTimeZone": "Etc/GMT+12"
    },
    {
        "id": 7280,
        "publicText": null,
        "name": "Frontrunner Station @ 2350 Wall Ave",
        "addressStreet": "2350 Wall Ave",
        "addressCity": "Ogden",
        "addressState": "UT",
        "addressZipCode": "84401",
        "latitude": 41.22412,
        "longitude": -111.98023,
        "totalDocks": 22,
        "timeZoneId": "Mountain Standard Time",
        "regionId": 37,
        "ianaTimeZone": "America/Denver"
    },
    {
        "id": 7283,
        "publicText": null,
        "name": "21st St and Grant Ave",
        "addressStreet": "21st and Grant Ave",
        "addressCity": "Ogden",
        "addressState": "UT",
        "addressZipCode": "84401",
        "latitude": 41.22924,
        "longitude": -111.97321,
        "totalDocks": 12,
        "timeZoneId": "Mountain Standard Time",
        "regionId": 37,
        "ianaTimeZone": "America/Denver"
    },
    {
        "id": 7284,
        "publicText": null,
        "name": "Brewery @ Grant Ave and Park Blvd",
        "addressStreet": "1911 S 315 E",
        "addressCity": "Ogden",
        "addressState": "UT",
        "addressZipCode": "84401",
        "latitude": 41.23282,
        "longitude": -111.97293,
        "totalDocks": 16,
        "timeZoneId": "Mountain Standard Time",
        "regionId": 37,
        "ianaTimeZone": "America/Denver"
    }
]
